[{"village_name":"Likoswe","village_lat":"-15.8297","village_lng":"35.1476"},{"village_name":"Nakhwala","village_lat":"-15.4762","village_lng":"35.3412"},{"village_name":"Chikumbu","village_lat":"-15.4745","village_lng":"35.3463"},{"village_name":"Maluwa","village_lat":"-15.6562","village_lng":"35.5227"},{"village_name":"Mwanga","village_lat":"-15.6433","village_lng":"35.5282"},{"village_name":"Bakili","village_lat":"-15.7012","village_lng":"35.3756"},{"village_name":"Siyabu","village_lat":"-15.3017","village_lng":"35.2128"},{"village_name":"Namphungo","village_lat":"-15.8049","village_lng":"35.3518"},{"village_name":"Saiti","village_lat":"-15.4798","village_lng":"35.3362"},{"village_name":"Nachuma","village_lat":"-15.2914","village_lng":"35.2216"},{"village_name":"Mlenga","village_lat":"-15.4858","village_lng":"35.3519"},{"village_name":"Chitimbe","village_lat":"-15.4916","village_lng":"35.2713"},{"village_name":"Kazembe","village_lat":"-15.7396","village_lng":"35.3296"},{"village_name":"Manyumba","village_lat":"-15.4816","village_lng":"35.2148"},{"village_name":"Chamba","village_lat":"-14.4814","village_lng":"34.8881"},{"village_name":"Kela","village_lat":"-14.6481","village_lng":"35.0636"},{"village_name":"Maloya ","village_lat":"-14.578","village_lng":"35.0017"},{"village_name":"Matandala","village_lat":"-10.3561","village_lng":"34.2213"},{"village_name":"Chantulo","village_lat":"-14.5489","village_lng":"34.8953"},{"village_name":"Balakasi","village_lat":"-15.5989","village_lng":"35.435"},{"village_name":"Jemus","village_lat":"-15.2638","village_lng":"35.205"},{"village_name":"Kusapa","village_lat":"-15.5044","village_lng":"35.3727"},{"village_name":"Mahambuwa","village_lat":"-15.4944","village_lng":"35.3742"},{"village_name":"Yelemiya","village_lat":"-10.3709","village_lng":"34.169"}]