[{"name": "Likoswe",
				"lat": "-15.8297",
				"lng": "35.1476"},
{"name": "Nakhwala",
				"lat": "-15.4762",
				"lng": "35.3412"},
{"name": "Chikumbu",
				"lat": "-15.4745",
				"lng": "35.3463"},
{"name": "Maluwa",
				"lat": "-15.6562",
				"lng": "35.5227"},
{"name": "Mwanga",
				"lat": "-15.6433",
				"lng": "35.5282"},
{"name": "Bakili",
				"lat": "-15.7012",
				"lng": "35.3756"},
{"name": "Siyabu",
				"lat": "-15.3017",
				"lng": "35.2128"},
{"name": "Namphungo",
				"lat": "-15.8049",
				"lng": "35.3518"},
{"name": "Saiti",
				"lat": "-15.4798",
				"lng": "35.3362"},
{"name": "Nachuma",
				"lat": "-15.2914",
				"lng": "35.2216"},
{"name": "Mlenga",
				"lat": "-15.4858",
				"lng": "35.3519"},
{"name": "Chitimbe",
				"lat": "-15.4916",
				"lng": "35.2713"},
{"name": "Kazembe",
				"lat": "-15.7396",
				"lng": "35.3296"},
{"name": "Manyumba",
				"lat": "-15.4816",
				"lng": "35.2148"},
{"name": "Chamba",
				"lat": "-14.4814",
				"lng": "34.8881"},
{"name": "Kela",
				"lat": "-14.6481",
				"lng": "35.0636"},
{"name": "Maloya ",
				"lat": "-14.578",
				"lng": "35.0017"},
{"name": "Matandala",
				"lat": "-10.3561",
				"lng": "34.2213"},
{"name": "Chantulo",
				"lat": "-14.5489",
				"lng": "34.8953"},
{"name": "Balakasi",
				"lat": "-15.5989",
				"lng": "35.435"},
{"name": "Jemus",
				"lat": "-15.2638",
				"lng": "35.205"},
{"name": "Kusapa",
				"lat": "-15.5044",
				"lng": "35.3727"},
{"name": "Mahambuwa",
				"lat": "-15.4944",
				"lng": "35.3742"},
{"name": "Yelemiya",
				"lat": "-10.3709",
				"lng": "34.169"}]